{
"type": "FeatureCollection",
"name": "mesh-nodes",
"crs": { "type": "name", "properties": { "name": "urn:ogc:def:crs:OGC:1.3:CRS84" } },
"features": [
{ "type": "Feature", "properties": { "Name": "Downed - 2246 N Howard St - Eracenia" }, "geometry": { "type": "Point", "coordinates": [ -75.1334818, 39.984494, 0.0 ] } },
{ "type": "Feature", "properties": { "Name": "2151 N Howard Street - Petronilla " }, "geometry": { "type": "Point", "coordinates": [ -75.1335692, 39.9832503, 0.0 ] } },
{ "type": "Feature", "properties": { "Name": "2244 N Howard St - Neftali" }, "geometry": { "type": "Point", "coordinates": [ -75.1336229, 39.983092, 0.0 ] } },
{ "type": "Feature", "properties": { "Name": "2141 Howard St. - NSNP Basement\n" }, "geometry": { "type": "Point", "coordinates": [ -75.1336658, 39.9829523, 0.0 ] } },
{ "type": "Feature", "properties": { "Name": "2116 N Hancock - Crystal NSCA " }, "geometry": { "type": "Point", "coordinates": [ -75.1359296, 39.9828454, 0.0 ] } },
{ "type": "Feature", "properties": { "Name": "2263 N Howard St - Leonardo Grocery Store" }, "geometry": { "type": "Point", "coordinates": [ -75.1331725, 39.9848118, 0.0 ] } },
{ "type": "Feature", "properties": { "Name": "Las Parcelas Mesh" }, "geometry": { "type": "Point", "coordinates": [ -75.1358091, 39.9851417, 0.0 ] } },
{ "type": "Feature", "properties": { "Name": "Colobo Gardens Solar Mesh " }, "geometry": { "type": "Point", "coordinates": [ -75.1354577, 39.9848971, 0.0 ] } },
{ "type": "Feature", "properties": { "Name": "GALAEI" }, "geometry": { "type": "Point", "coordinates": [ -75.1343264, 39.9813831, 0.0 ] } }
]
}
